City_ID,City,Lat,Lng,Max Temp,Humidity,Cloudiness,Wind Speed,Country,Date
0,wailua homesteads,22.0669,-159.378,20.24,86,100,4.92,US,1707995354
1,iqaluit,63.7506,-68.5145,-16.32,97,100,2.56,CA,1707995179
2,kaedi,16.1465,-13.5047,33.62,6,100,5.13,MR,1707995355
3,bilibino,68.0546,166.4372,-33.97,100,98,0.19,RU,1707995356
4,gobabis,-22.45,18.9667,34.98,13,46,3.53,NA,1707995286
5,tiksi,71.6872,128.8694,-35.38,100,98,1.26,RU,1707995357
6,port-aux-francais,-49.35,70.2167,9.32,90,100,17.44,TF,1707995357
7,bodo,67.28,14.405,-2.9,79,75,9.77,NO,1707995075
8,udachny,66.4167,112.4,-30.31,74,99,0.89,RU,1707995358
9,extrema,-22.8547,-46.3183,19.25,99,100,1.34,BR,1707995359
10,grytviken,-54.2811,-36.5092,3.77,69,15,7.23,GS,1707995147
11,ilebo,-4.3167,20.5833,31.43,57,96,0.19,CD,1707995359
12,filadelfia,39.9523,-75.1638,-2.06,66,20,3.09,US,1707995328
13,pauini,-7.7136,-66.9764,22.96,97,96,0.9,BR,1707995361
14,kruisfontein,-34.0033,24.7314,19.06,65,97,8.61,ZA,1707995361
15,haiku-pauwela,20.9219,-156.3051,22.25,75,0,6.17,US,1707995362
16,qaqortoq,60.7167,-46.0333,-4.18,73,99,4.04,GL,1707995362
17,san antonio de pale,-1.4014,5.6325,28.92,80,99,4.29,GQ,1707995363
18,adamstown,-25.066,-130.1015,24.72,90,70,6.66,PN,1707995363
19,port lincoln,-34.7333,135.8667,16.82,75,54,5.08,AU,1707995364
20,san patricio,28.017,-97.5169,19.92,91,100,2.11,US,1707995365
21,puerto natales,-51.7236,-72.4875,4.25,93,75,2.06,CL,1707995365
22,haimen,23.1935,116.6142,20.62,75,100,3.58,CN,1707995366
23,lihue,21.9789,-159.3672,20.58,87,100,2.57,US,1707995367
24,badger,64.8,-147.5333,-13.05,83,40,0.0,US,1707995367
25,licata,37.1071,13.9461,20.5,47,0,1.3,IT,1707995368
26,hawaiian paradise park,19.5933,-154.9731,21.13,93,0,2.06,US,1707995368
27,acapulco de juarez,16.8634,-99.8901,23.9,78,40,1.54,MX,1707995174
28,morondava,-20.2833,44.2833,28.73,74,99,1.97,MG,1707995284
29,bethel,41.3712,-73.414,-4.73,74,7,1.55,US,1707995369
30,pangoa,-12.1167,-73.0,19.77,99,100,0.6,PE,1707995369
31,anadyr,64.75,177.4833,-24.72,83,75,6.0,RU,1707995371
32,uturoa,-16.7333,-151.4333,27.68,77,75,6.75,PF,1707995372
33,stanley,54.868,-1.6985,12.77,95,75,2.57,GB,1707995372
34,bikaner,28.0167,73.3,26.25,10,0,1.93,IN,1707995373
35,tongchuanshi,35.0806,109.0897,4.45,48,88,1.19,CN,1707995373
36,tomatlan,19.9333,-105.25,23.07,55,100,2.53,MX,1707995374
37,zouerate,22.7187,-12.4521,25.38,35,0,4.77,MR,1707995374
38,mora,11.0461,14.1401,31.25,12,2,3.89,CM,1707995198
39,vorgashor,67.5833,63.95,-30.55,100,96,2.64,RU,1707995376
40,longyearbyen,78.2186,15.6401,-0.09,93,75,7.2,SJ,1707995237
41,dolinsk,47.35,142.8,-12.52,97,100,2.32,RU,1707995376
42,carbonear,47.7332,-53.2148,1.19,98,100,10.78,CA,1707995377
43,nar'yan-mar,67.6713,53.087,-21.61,88,100,4.02,RU,1707995378
44,papatowai,-46.5619,169.4708,8.56,90,11,3.15,NZ,1707995378
45,edinburgh of the seven seas,-37.0676,-12.3116,19.91,93,100,10.39,SH,1707995379
46,suluru,13.7,80.0167,28.51,50,56,5.01,IN,1707995379
47,meizhou,24.2977,116.1072,22.96,61,86,0.67,CN,1707995379
48,nuuk,64.1835,-51.7216,-6.66,86,75,4.12,GL,1707995380
49,aasiaat,68.7098,-52.8699,-25.88,77,100,1.64,GL,1707995380
50,avarua,-21.2078,-159.775,25.03,100,75,3.6,CK,1707995381
51,letterkenny,54.95,-7.7333,11.94,97,100,1.55,IE,1707995381
52,port blair,11.6667,92.75,30.02,70,20,4.63,IN,1707995199
53,georgetown,5.4112,100.3354,31.96,62,20,1.03,MY,1707995236
54,hun,29.1268,15.9477,16.49,41,0,5.67,LY,1707995382
55,st. john's,47.5649,-52.7093,0.93,98,100,9.77,CA,1707995383
56,colesberg,-30.72,25.0972,31.28,8,98,12.37,ZA,1707995384
57,geraldton,-28.7667,114.6,25.23,78,20,5.14,AU,1707995327
58,nishinoomote,30.7333,131.0,18.47,74,4,11.42,JP,1707995238
59,maintirano,-18.0667,44.0167,28.65,73,100,2.5,MG,1707995386
60,vytegra,61.0064,36.4481,-14.8,92,100,5.81,RU,1707995386
61,lebu,-37.6167,-73.65,13.77,93,69,1.59,CL,1707995387
62,ilulissat,69.2167,-51.1,-20.99,71,20,1.54,GL,1707995388
63,antofagasta,-23.65,-70.4,20.53,84,94,1.48,CL,1707995389
64,deyang,31.1302,104.382,13.1,42,29,4.66,CN,1707995390
65,vernon,50.2581,-119.2691,-5.43,80,50,0.89,CA,1707995391
66,akrehamn,59.2667,5.1833,6.67,75,75,3.09,NO,1707995392
67,bredasdorp,-34.5322,20.0403,20.25,50,62,9.78,ZA,1707995393
68,margaret river,-33.95,115.0667,22.4,64,90,6.64,AU,1707995393
69,marsh harbour,26.5412,-77.0636,20.33,62,3,7.17,BS,1707995394
70,opuwo,-18.0607,13.84,33.46,29,85,2.84,NA,1707995395
71,yatou,37.15,122.3833,-0.31,46,28,6.81,CN,1707995395
72,alaghsas,17.0187,8.0168,28.45,9,3,10.96,NE,1707995396
73,qinnan,33.2531,119.9133,2.93,61,91,3.45,CN,1707995397
74,waitangi,-43.9535,-176.5597,17.12,93,0,2.24,NZ,1707995398
75,longonjo,-12.9067,15.2533,29.82,42,23,0.6,AO,1707995399
76,tagta,41.6504,59.9164,16.16,39,100,4.9,TM,1707995304
77,constantia,44.1833,28.65,6.5,74,100,9.48,RO,1707995400
78,dayr al balah,31.4166,34.3452,17.66,48,61,6.23,PS,1707995400
79,west island,-12.1568,96.8225,29.99,66,48,5.14,CC,1707995400
80,smithers,54.7804,-127.1743,-7.98,91,6,0.26,CA,1707995401
81,callao,-12.0667,-77.15,24.29,78,0,3.09,PE,1707995401
82,saipan,15.1355,145.701,26.39,73,40,7.2,MP,1707995401
83,klyuchi,52.2667,79.1667,-22.47,85,100,4.51,RU,1707995402
84,chokwe,-24.5333,32.9833,38.17,27,1,2.07,MZ,1707995156
85,half moon,34.826,-77.4594,6.64,93,0,0.0,US,1707995404
86,tlahualilo de zaragoza,26.1167,-103.45,13.68,30,100,1.3,MX,1707995404
87,bria,6.5423,21.9863,40.35,7,39,1.63,CF,1707995200
88,vilyuchinsk,52.9306,158.4028,-10.97,87,100,2.87,RU,1707995406
89,el calafate,-50.3408,-72.2768,11.89,84,99,4.21,AR,1707995406
90,olonkinbyen,70.9221,-8.7187,-9.98,71,100,11.19,SJ,1707995407
91,chernomorskoye,45.5039,32.6997,6.56,80,88,11.18,UA,1707995407
92,blackmans bay,-43.0167,147.3167,17.07,73,24,0.7,AU,1707995408
93,atafu village,-8.5421,-172.5159,26.31,93,100,12.19,TK,1707995409
94,waingapu,-9.6567,120.2641,28.24,81,70,1.71,ID,1707995409
95,curtea de arges,45.1333,24.6833,8.35,51,2,1.27,RO,1707995410
96,isafjordur,66.0755,-23.124,-9.98,73,40,1.54,IS,1707995410
97,kibre mengist,5.8833,38.9833,26.57,33,64,3.68,ET,1707995411
98,mejit,10.2753,170.8646,26.16,78,85,9.82,MH,1707995412
99,dudinka,69.4058,86.1778,-21.88,95,100,6.26,RU,1707995412
100,naze,28.3667,129.4833,18.23,78,3,4.87,JP,1707995167
101,susuman,62.7833,148.1667,-32.79,98,100,1.34,RU,1707995413
102,port elizabeth,-33.918,25.5701,21.29,74,75,10.29,ZA,1707995414
103,mastung,29.7994,66.845,16.17,13,0,1.93,PK,1707995415
104,punta arenas,-53.15,-70.9167,7.06,81,75,2.06,CL,1707995415
105,monteagudo,-19.8167,-63.9833,18.99,92,100,0.22,BO,1707995416
106,ust-nera,64.5667,143.2,-37.23,99,100,0.31,RU,1707995417
107,ushuaia,-54.8,-68.3,7.81,71,0,5.66,AR,1707995417
108,enewetak,11.3474,162.3373,26.16,79,100,10.89,MH,1707995417
109,yellowknife,62.456,-114.3525,-23.66,91,100,2.57,CA,1707995418
110,invercargill,-46.4,168.35,10.57,81,2,1.34,NZ,1707995418
111,carnarvon,-24.8667,113.6333,26.53,69,68,5.67,AU,1707995419
112,hidalgo,20.5,-99.0,12.67,77,100,1.95,MX,1707995356
113,garoowe,8.4054,48.4845,33.03,25,1,5.99,SO,1707995421
114,whitehorse,60.7161,-135.0538,-14.83,78,69,0.89,CA,1707995421
115,karanganom,-7.6489,110.625,26.77,85,92,2.94,ID,1707995422
116,tazovsky,67.4667,78.7,-26.51,94,15,5.26,RU,1707995423
117,kapa'a,22.0752,-159.319,20.99,86,100,4.92,US,1707995424
118,kailua-kona,19.6406,-155.9956,21.98,81,0,3.09,US,1707995424
119,cidreira,-30.1811,-50.2056,23.03,65,82,6.44,BR,1707995425
120,usogorsk,63.4106,48.6872,-17.96,84,6,2.16,RU,1707995425
121,copala,16.65,-98.9833,23.7,74,100,1.54,MX,1707995427
122,thompson,55.7435,-97.8558,-34.72,98,49,2.02,CA,1707995427
123,kapuskasing,49.4169,-82.4331,-8.25,97,100,1.77,CA,1707995428
124,concepcion de la sierra,-27.9831,-55.5203,20.36,91,93,1.97,AR,1707995428
125,itaituba,-4.2761,-55.9836,24.49,90,85,1.05,BR,1707995428
126,pangody,65.85,74.4859,-23.19,96,43,5.67,RU,1707995429
127,manay,7.215,126.5397,24.42,76,38,2.92,PH,1707995153
128,tual,-5.6667,132.75,28.81,81,100,8.44,ID,1707995431
129,eydhafushi,5.1033,73.0708,28.19,75,26,6.38,MV,1707995189
130,ceylanpinar,36.8472,40.05,14.92,60,92,0.32,TR,1707995432
131,colares,38.7992,-9.4469,18.55,89,75,7.15,PT,1707995433
132,petropavlovsk-kamchatsky,53.0452,158.6483,-11.79,51,100,2.34,RU,1707995433
133,gizo,-8.103,156.8419,28.19,79,5,5.1,SB,1707995433
134,coquimbo,-29.9533,-71.3436,18.62,88,70,1.58,CL,1707995434
135,pinotepa nacional,16.3167,-98.0167,21.26,82,65,1.38,MX,1707995435
136,luderitz,-26.6481,15.1594,25.27,47,40,13.9,NA,1707995286
137,dhandhuka,22.3667,71.9833,33.23,14,0,1.94,IN,1707995435
138,northam,51.0333,-4.2167,14.66,89,100,6.83,GB,1707995436
139,vadso,70.0744,29.7487,-9.91,79,75,9.77,NO,1707995436
140,burang,30.25,81.1667,-0.58,40,1,1.3,CN,1707995438
141,sandnessjoen,66.0217,12.6316,3.06,87,75,6.69,NO,1707995438
142,fale old settlement,-9.3852,-171.2468,26.52,94,100,10.12,TK,1707995439
143,hakui,36.8833,136.7833,15.63,86,98,10.79,JP,1707995142
144,mili,6.0815,171.735,27.58,75,97,8.75,MH,1707995440
145,college,64.8569,-147.8028,-13.01,68,20,0.0,US,1707995442
146,alausi,-2.2,-78.8333,11.4,91,100,2.45,EC,1707995444
147,santa terezinha,-29.9002,-50.0904,22.5,68,59,5.01,BR,1707995444
148,bolobo,-2.1667,16.2333,34.4,42,95,1.86,CD,1707995201
149,hilo,19.7297,-155.09,21.25,89,0,2.06,US,1707995445
150,alo,7.4178,6.7371,38.12,25,43,2.49,NG,1707995445
151,vikulovo,56.8167,70.6107,-21.66,89,100,5.78,RU,1707995446
152,oriximina,-1.7656,-55.8661,24.04,94,44,1.13,BR,1707995446
153,north bay,46.3168,-79.4663,-7.25,74,92,2.23,CA,1707995447
154,cooma,-36.2333,149.1333,13.8,96,57,1.68,AU,1707995448
155,nizao,18.25,-70.2,23.59,85,20,4.37,DO,1707995448
156,katsuura,35.1333,140.3,16.25,74,92,12.1,JP,1707995348
157,brande,55.9381,9.1218,8.09,99,100,3.21,DK,1707995449
158,launceston,-41.45,147.1667,16.2,77,59,5.14,AU,1707995407
159,newman,37.3138,-121.0208,11.13,93,98,0.89,US,1707995450
160,kerikeri,-35.2268,173.9474,18.28,89,4,0.89,NZ,1707995444
161,cill airne,52.05,-9.5167,11.03,100,100,3.6,IE,1707995451
162,coxen hole,16.3244,-86.5366,25.71,79,57,5.69,HN,1707995452
163,afaahiti,-17.75,-149.2833,24.93,79,93,7.43,PF,1707995453
164,tolanaro,-25.0319,46.9987,25.68,83,100,4.12,MG,1707995453
165,kangding,30.0513,101.9603,0.36,94,100,1.84,CN,1707995454
166,bandarbeyla,9.4942,50.8122,27.69,63,25,7.46,SO,1707995455
167,braganca,-1.0536,-46.7656,25.6,94,96,1.56,BR,1707995455
168,chul'man,56.8479,124.9104,-36.46,100,56,1.24,RU,1707995455
169,albany,42.6001,-73.9662,-6.31,61,2,3.13,US,1707995456
170,ottawa,45.4112,-75.6981,-10.01,77,25,1.16,CA,1707995158
171,port mathurin,-19.6833,63.4167,27.67,83,97,8.81,MU,1707995456
172,ouani,-12.1322,44.4258,28.32,81,92,7.17,KM,1707995457
173,gorontalo,0.5412,123.0595,25.64,90,59,1.04,ID,1707995458
174,santa marta de ortigueira,43.6833,-7.85,17.36,78,100,2.68,ES,1707995459
175,tura,25.5198,90.2201,24.7,41,5,2.3,IN,1707995218
176,fort mcmurray,56.7268,-111.381,-23.23,100,94,1.03,CA,1707995459
177,mount isa,-20.7333,139.5,26.87,78,40,3.09,AU,1707995460
178,safotu,-13.4513,-172.4018,28.18,87,100,8.19,WS,1707995460
179,falam,22.9167,93.6833,18.46,47,96,0.64,MM,1707995253
180,ondangwa,-17.9167,15.95,33.35,24,16,2.5,NA,1707995462
181,kroya,-7.6331,109.2461,28.17,81,90,2.47,ID,1707995463
182,santa catalina,9.3337,122.8637,26.78,77,13,2.69,PH,1707995294
183,karimpur,23.9667,88.6167,29.01,39,17,1.41,IN,1707995463
184,puerto baquerizo moreno,-0.9,-89.6,26.59,80,78,4.6,EC,1707995464
185,haapajarvi,63.75,25.3333,-6.42,94,97,3.54,FI,1707995465
186,papao,-17.75,-149.55,25.82,72,81,7.09,PF,1707995467
187,ribeira grande,38.5167,-28.7,18.22,88,75,11.18,PT,1707995468
188,sandusky,41.3501,-83.1332,-0.02,76,100,2.68,US,1707995469
189,markovo,57.3206,107.0881,-11.73,97,99,2.34,RU,1707995469
190,verkhnevilyuysk,63.4453,120.3167,-36.97,100,97,0.78,RU,1707995470
191,iskateley,67.6803,53.1512,-21.66,88,100,4.02,RU,1707995472
192,howrah,22.5892,88.3103,27.0,65,20,1.54,IN,1707995473
193,ulety,51.3572,112.4849,-15.01,94,100,1.32,RU,1707995473
194,sinop,41.7711,34.8709,6.24,91,100,1.59,TR,1707995473
195,gandajika,-6.75,23.95,23.61,81,99,1.18,CD,1707995474
196,kyzyl,51.7,94.45,-12.77,82,100,0.45,RU,1707995474
197,nova sintra,14.8667,-24.7167,20.41,79,1,10.6,CV,1707995475
198,sosnovo-ozerskoye,52.5249,111.5418,-16.04,93,100,2.34,RU,1707995475
199,new norfolk,-42.7826,147.0587,17.72,82,15,1.4,AU,1707995476
200,alofi,-19.0595,-169.9187,26.57,81,98,13.27,NU,1707995476
201,bhamo,24.2667,97.2333,25.02,40,100,0.85,MM,1707995477
202,qui nhon,13.7667,109.2333,24.0,92,93,3.71,VN,1707995083
203,ta`u,-14.2336,-169.5144,27.37,86,100,5.76,AS,1707995478
204,guerrero negro,27.9769,-114.0611,13.8,84,93,4.32,MX,1707995479
205,ebon,4.582,168.6964,27.97,76,99,9.42,MH,1707995479
206,uklana,29.5167,75.8667,27.52,11,0,2.56,IN,1707995480
207,astrakhan,46.3497,48.0408,-2.07,80,75,9.0,RU,1707995480
208,lisala,2.15,21.5167,40.94,18,51,1.05,CD,1707995480
209,remire-montjoly,4.9167,-52.2667,27.02,83,40,0.0,GF,1707995481
210,brisas de zicatela,15.8369,-97.0419,24.84,76,30,1.1,MX,1707995481
211,coronel suarez,-37.4547,-61.9334,13.9,69,0,3.38,AR,1707995482
212,rexburg,43.826,-111.7897,1.97,84,100,5.14,US,1707995482
213,cockburn town,21.4612,-71.1419,24.79,72,34,3.18,TC,1707995482
214,port alfred,-33.5906,26.891,21.21,83,100,3.58,ZA,1707995483
215,palembang,-2.9167,104.7458,26.05,94,75,2.57,ID,1707995241
216,talnakh,69.4865,88.3972,-22.11,91,98,4.57,RU,1707995484
217,touros,-5.1989,-35.4608,28.29,72,94,2.84,BR,1707995485
218,beyneu,45.3167,55.2,1.65,60,99,9.35,KZ,1707995485
219,saldanha,-33.0117,17.9442,19.36,60,3,8.49,ZA,1707995485
220,pauls valley,34.7401,-97.2223,8.86,93,0,0.0,US,1707995486
221,bellegarde-sur-valserine,46.1079,5.8242,12.97,56,100,1.18,FR,1707995486
222,pisco,-13.7,-76.2167,22.03,83,88,3.6,PE,1707995487
223,kununurra,-15.7667,128.7333,30.99,79,41,1.54,AU,1707995488
224,sinaloa de leyva,25.8333,-108.2333,16.0,51,100,0.24,MX,1707995489
225,andergrove,-21.0833,149.1833,25.36,82,100,5.92,AU,1707995489
226,severo-yeniseyskiy,60.3725,93.0408,-21.9,94,100,4.02,RU,1707995491
227,neon karlovasion,37.7903,26.7044,12.87,80,100,7.63,GR,1707995492
228,arraial do cabo,-22.9661,-42.0278,24.92,94,75,2.06,BR,1707995469
229,polyarnyy,69.1989,33.4478,-12.2,85,100,8.7,RU,1707995492
230,cole harbour,44.6724,-63.4751,-3.43,86,100,5.81,CA,1707995493
231,bajil,15.0584,43.2851,33.92,40,59,6.35,YE,1707995494
232,sai buri,6.7013,101.6168,27.01,76,57,4.71,TH,1707995495
233,arkhangel'sk,64.5401,40.5433,-17.72,70,0,5.0,RU,1707995495
234,keflavik,64.0049,-22.5624,1.24,86,75,1.03,IS,1707995496
235,bamboo flat,11.7,92.7167,30.05,70,20,4.63,IN,1707995496
236,inirida,3.8653,-67.9239,23.08,95,94,0.29,CO,1707995497
237,saudarkrokur,65.7461,-19.6394,-5.93,95,100,0.83,IS,1707995498
238,yoloten,37.2989,62.3597,25.9,12,4,3.08,TM,1707995499
239,tarko-sale,64.9225,77.785,-24.43,92,31,6.99,RU,1707995499
240,ain sukhna,29.6002,32.3167,18.3,39,35,8.07,EG,1707995499
241,hithadhoo,-0.6,73.0833,28.59,77,37,6.89,MV,1707995500
242,weno,7.4515,151.8468,27.55,81,100,10.4,FM,1707995501
243,maxixe,-23.8597,35.3472,32.93,51,2,5.03,MZ,1707995285
244,sinabang,2.4803,96.3801,29.01,77,76,1.75,ID,1707995502
245,benghazi,32.1167,20.0667,15.64,60,91,10.25,LY,1707995279
246,kasane,-17.8167,25.15,37.03,14,3,1.57,BW,1707995503
247,zhaotong,27.3167,103.7167,4.96,58,96,3.61,CN,1707995503
248,lycksele,64.5954,18.6735,-5.07,93,100,0.51,SE,1707995504
249,puerto ayacucho,5.6639,-67.6236,24.4,91,99,1.87,VE,1707995504
250,campbell river,50.0163,-125.2446,0.25,57,1,2.73,CA,1707995505
251,beloyarskiy,63.7119,66.6722,-20.56,90,100,3.13,RU,1707995506
252,fort st. john,56.2499,-120.8529,-6.53,56,8,1.52,CA,1707995506
253,soio,-6.1349,12.3689,30.02,69,93,2.11,AO,1707995507
254,brasileia,-11.0161,-68.7481,24.25,100,75,0.0,BR,1707995507
255,lively,46.4334,-81.1498,-6.66,91,100,3.26,CA,1707995508
256,villa de cos,23.2833,-102.35,11.12,79,100,2.31,MX,1707995508
257,thinadhoo,0.5333,72.9333,28.37,79,34,7.08,MV,1707995509
258,chimore,-16.9833,-65.1333,21.91,94,100,0.6,BO,1707995509
259,klaksvik,62.2266,-6.589,3.51,70,97,7.05,FO,1707995509
260,yeniseysk,58.4497,92.1703,-18.76,93,100,4.06,RU,1707995510
261,nyurba,63.2842,118.3319,-39.27,100,85,0.72,RU,1707995511
262,hanak,41.2336,42.8472,2.18,99,100,2.2,TR,1707995511
263,hermanus,-34.4187,19.2345,21.0,63,58,10.76,ZA,1707995512
264,tongliao,43.6125,122.2653,-9.69,69,2,2.34,CN,1707995463
265,muniz,26.2565,-98.0894,21.01,89,100,1.54,US,1707995512
266,broome,42.2506,-75.833,-5.21,87,20,0.45,US,1707995513
267,patterson,37.4716,-121.1297,10.99,93,89,0.49,US,1707995513
268,richfield,44.8833,-93.283,-5.79,87,0,6.17,US,1707995514
269,masterton,-40.9597,175.6575,18.39,82,19,1.38,NZ,1707995453
270,paita,-5.0892,-81.1144,25.77,82,85,3.27,PE,1707995514
271,belmonte,-15.8631,-38.8828,27.97,72,77,2.87,BR,1707995515
272,taman',45.2117,36.7161,5.8,72,81,11.42,RU,1707995516
273,sao joao da barra,-21.6403,-41.0511,25.05,92,100,3.54,BR,1707995517
274,rongelap,11.1635,166.8941,26.13,80,83,9.99,MH,1707995518
275,fort bragg,35.139,-79.006,5.46,83,0,0.0,US,1707995519
276,hadibu,12.65,54.0333,27.76,59,18,6.15,YE,1707995519
277,puerto ayora,-0.7393,-90.3518,26.97,96,75,2.24,EC,1707995520
278,puerto armuelles,8.2833,-82.8667,26.99,74,81,0.45,PA,1707995521
279,kavaratti,10.5669,72.642,28.33,67,23,2.39,IN,1707995523
280,sisimiut,66.9395,-53.6735,-18.9,70,100,1.78,GL,1707995523
281,altay,47.8667,88.1167,-3.48,94,100,2.67,CN,1707995446
282,santa cruz,-17.8,-63.1667,24.03,88,40,2.57,BO,1707995524
283,salinopolis,-0.6136,-47.3561,26.09,89,96,5.0,BR,1707995524
284,dunedin,-45.8742,170.5036,13.22,85,98,0.89,NZ,1707995525
285,the pas,53.8251,-101.2541,-19.99,77,100,4.63,CA,1707995525
286,belyy yar,53.6039,91.3903,-9.06,41,0,8.0,RU,1707995525
287,lata,40.1629,-8.3327,16.01,91,100,2.87,PT,1707995525
288,yoro,15.1333,-87.1333,18.8,96,58,0.49,HN,1707995526
289,trincomalee,8.5711,81.2335,27.34,74,55,7.81,LK,1707995527
290,guinguineo,14.2667,-15.95,31.88,19,100,6.4,SN,1707995296
291,caleta de carquin,-11.0925,-77.6267,23.81,85,54,3.17,PE,1707995528
292,coahuayana de hidalgo,18.7,-103.6583,24.43,57,100,1.64,MX,1707995529
293,bonthe,7.5264,-12.505,31.28,57,64,3.2,SL,1707995530
294,west plains,36.7281,-91.8524,7.46,76,0,2.06,US,1707995531
295,kilindoni,-7.9139,39.6668,29.18,73,62,7.77,TZ,1707995532
296,akjoujt,19.6969,-14.4164,32.22,16,0,6.37,MR,1707995533
297,tocache,-8.1842,-76.5125,21.91,100,100,0.35,PE,1707995533
298,las heras,-46.5419,-68.9359,16.73,56,25,7.63,AR,1707995534
299,utrik,11.2278,169.8474,25.9,80,28,10.03,MH,1707995535
300,villa gesell,-37.2639,-56.973,21.14,79,100,3.92,AR,1707995535
301,isheyevka,54.4167,48.2667,-20.27,93,23,2.83,RU,1707995536
302,chegdomyn,51.1167,133.0167,-27.13,95,83,1.57,RU,1707995536
303,kolonia,50.9333,6.95,16.6,80,0,4.63,DE,1707995281
304,qandala,11.472,49.8728,28.16,62,4,5.77,SO,1707995537
305,beni,0.5,29.4667,28.79,40,100,1.74,CD,1707995538
306,queenstown,-31.8976,26.8753,35.48,9,65,11.41,ZA,1707995539
307,sheridan,44.8333,-106.9173,-3.72,89,100,4.12,US,1707995540
308,lompoc,34.6391,-120.4579,11.23,87,100,4.63,US,1707995541
309,le grazie di ancona,43.6008,13.5153,15.56,60,14,2.06,IT,1707995541
310,pecanha,-18.5486,-42.5569,21.17,88,98,0.91,BR,1707995542
311,kasempa,-13.4584,25.8338,30.44,37,99,1.59,ZM,1707995542
312,ca mau,9.1769,105.15,28.48,64,48,6.16,VN,1707995456
313,horsham,51.064,-0.3272,14.94,78,0,3.09,GB,1707995543
314,tsiombe,-25.3,45.4833,31.02,59,98,6.88,MG,1707995545
315,axim,4.8699,-2.2405,30.67,69,99,3.81,GH,1707995546
316,vilyuysk,63.7553,121.6247,-33.89,100,97,0.89,RU,1707995547
317,ancud,-41.8697,-73.8203,11.11,81,66,2.4,CL,1707995548
318,inyati,-19.6756,28.8469,34.14,13,1,0.65,ZW,1707995548
319,alenquer,-1.9417,-54.7383,23.97,94,52,1.22,BR,1707995549
320,leava,-14.3,-178.1667,28.52,81,62,5.8,WF,1707995487
321,zalla,43.2333,-3.1333,18.03,50,0,5.14,ES,1707995550
322,inarajan village,13.2736,144.7484,27.08,94,100,9.75,GU,1707995550
323,jamestown,42.097,-79.2353,-5.16,100,0,2.06,US,1707995550
324,metlili chaamba,32.2667,3.6333,21.06,26,100,4.1,DZ,1707995551
325,sars,56.5502,57.1366,-19.66,83,6,3.13,RU,1707995552
326,qarawul,37.2202,68.7804,20.96,16,99,1.71,AF,1707995552
327,zlatni pyasatsi,43.285,28.0418,9.31,64,75,15.43,BG,1707995553
328,altai,46.3722,96.2583,-6.99,59,98,9.58,MN,1707995553
329,kokopo,-4.352,152.2633,26.76,82,100,2.14,PG,1707995554
330,prince albert,53.2001,-105.7677,-21.73,98,74,1.89,CA,1707995555
331,california city,35.1258,-117.9859,10.32,69,0,3.6,US,1707995556
332,cho dok,10.7,105.1167,32.41,39,17,1.94,VN,1707995558
333,tottori,35.5,134.2333,13.28,94,88,5.49,JP,1707995527
334,castillos,-34.1667,-53.8333,20.54,66,100,2.73,UY,1707995559
335,guixi,28.2886,117.2133,10.12,88,100,1.47,CN,1707995559
336,itacoatiara,-3.1431,-58.4442,24.78,85,86,0.96,BR,1707995560
337,okhotsk,59.3833,143.3,-23.85,90,100,2.66,RU,1707995560
338,murzuq,25.9155,13.9184,16.34,35,3,3.25,LY,1707995477
339,glace bay,46.1969,-59.957,-1.17,95,100,7.6,CA,1707995561
340,bulayevo,54.9056,70.4439,-25.62,90,100,5.62,KZ,1707995562
341,palmer,42.1584,-72.3287,-5.23,66,1,1.99,US,1707995287
342,sirte,31.2089,16.5887,16.69,58,45,7.8,LY,1707995563
343,gadzhiyevo,69.2551,33.3362,-12.51,85,100,8.51,RU,1707995563
344,pickering,43.9001,-79.1329,-3.4,82,34,2.23,CA,1707995033
345,al jawf,29.5,38.75,17.91,31,1,4.12,SA,1707995564
346,mahenge,-8.6833,36.7167,23.89,79,100,0.6,TZ,1707995565
347,mthatha,-31.5889,28.7844,32.34,41,86,4.72,ZA,1707995567
348,gudalur,9.6833,77.2667,30.18,40,14,3.62,IN,1707995568
349,porto seguro,-16.4497,-39.0647,28.29,78,40,3.09,BR,1707995569
350,zambezi,-13.5432,23.1047,32.3,32,100,2.23,ZM,1707995570
351,daru,-9.0763,143.2092,27.71,86,85,2.33,PG,1707995571
352,ghanzi,-21.5667,21.7833,35.82,19,63,2.76,BW,1707995571
353,manali,13.1667,80.2667,30.06,66,90,5.0,IN,1707995397
354,urumqi,43.801,87.6005,-6.47,74,100,2.0,CN,1707995463
355,mugia,43.1041,-9.2179,14.95,96,100,5.78,ES,1707995572
356,nemuro,43.3236,145.575,-1.12,92,100,6.76,JP,1707995464
357,panorama,40.5878,23.0315,12.17,42,20,6.69,GR,1707995574
358,kovur,14.4833,79.9833,28.13,53,46,4.94,IN,1707995574
359,pingliang,35.5392,106.6861,3.33,36,7,2.51,CN,1707995575
360,praia da vitoria,38.7333,-27.0667,17.14,88,75,12.81,PT,1707995575
361,kolasib,24.2333,92.7,26.5,45,63,0.82,IN,1707995575
362,rocha,-34.4833,-54.3333,20.46,60,87,2.21,UY,1707995576
363,puerto maldonado,-12.6,-69.1833,23.22,100,75,0.0,PE,1707995576
364,rosarito,32.3333,-117.0333,12.53,85,50,2.56,MX,1707995578
365,sanctuary point,-35.1114,150.629,20.42,81,100,1.66,AU,1707995578
366,montagu,-40.7667,144.9667,14.44,79,100,2.89,AU,1707995579
367,valparaiso,-33.0393,-71.6273,17.8,82,100,2.57,CL,1707995580
368,loukhi,66.0764,33.0381,-14.38,92,100,3.1,RU,1707995580
369,tshabong,-26.05,22.45,35.15,12,87,6.25,BW,1707995581
370,livingstone,-17.8419,25.8543,35.66,15,1,1.65,ZM,1707995582
371,nova vicosa,-17.8919,-39.3719,27.53,78,92,3.74,BR,1707995582
372,la passe,45.5549,-0.8967,15.13,71,100,7.79,FR,1707995582
373,vail,32.0479,-110.712,8.47,48,0,2.68,US,1707995583
374,novodvinsk,64.4165,40.8122,-17.92,85,17,4.29,RU,1707995584
375,chonchi,-42.6128,-73.8092,10.62,82,73,0.71,CL,1707995584
376,nianzishan,47.5167,122.8833,-11.17,51,12,2.31,CN,1707995585
377,crane,31.3974,-102.3501,10.31,52,69,2.83,US,1707995587
378,kingston,17.997,-76.7936,23.53,83,20,1.03,JM,1707995587
379,slupca,52.2873,17.8719,10.11,83,100,3.28,PL,1707995589
380,luena,-11.7833,19.9167,30.58,35,50,1.94,AO,1707995589
381,harare,-17.8294,31.0539,26.57,50,0,2.78,ZW,1707995304
382,bamyan,34.75,67.25,-0.4,74,1,1.24,AF,1707995590
383,mogadishu,2.0371,45.3438,29.82,70,23,10.05,SO,1707995505
384,zaozersk,69.4005,32.4476,-14.15,87,100,6.38,RU,1707995591
385,khovd,48.0056,91.6419,1.89,37,99,5.5,MN,1707995591
386,thaton,16.9206,97.3714,30.69,33,18,2.83,MM,1707995592
387,mana,5.6592,-53.7767,26.47,73,66,4.26,GF,1707995593
388,isabela,6.7085,121.9711,25.9,74,43,0.99,PH,1707995593
389,santa maria,-29.6842,-53.8069,18.88,75,83,4.38,BR,1707995594
390,kaa-khem,51.6833,94.7333,-13.11,95,100,1.34,RU,1707995595
391,pompeu,-19.2244,-44.9353,20.69,87,100,1.22,BR,1707995596
392,ankang,32.68,109.0172,11.02,44,100,0.84,CN,1707995596
393,hamilton,39.1834,-84.5333,4.31,67,0,3.6,US,1707995256
394,gaiman,-43.2897,-65.4929,26.52,34,14,2.02,AR,1707995597
395,mossel bay,-34.1831,22.146,20.96,65,44,11.49,ZA,1707995597
396,mena,51.5217,32.2157,4.45,95,100,1.7,UA,1707995598
397,brak,27.5496,14.2714,16.75,34,0,2.98,LY,1707995599
398,howard springs,-12.497,131.047,27.12,95,100,2.88,AU,1707995599
399,pemba,-12.974,40.5178,30.39,79,75,4.63,MZ,1707995600
400,cariati,39.4922,16.9594,14.15,54,0,7.22,IT,1707995601
401,sitka,57.0531,-135.33,1.94,80,0,0.0,US,1707995602
402,korsholm,63.1142,21.6822,0.56,100,100,4.92,FI,1707995602
403,hassi messaoud,31.6804,6.0729,20.63,20,35,3.84,DZ,1707995603
404,keffi,8.8486,7.8736,37.09,10,18,0.68,NG,1707995604
405,dhidhdhoo,6.8833,73.1,28.18,75,44,5.17,MV,1707995543
406,yantzaza,-3.8278,-78.7594,21.45,99,100,0.75,EC,1707995605
407,barranca,-10.75,-77.7667,23.62,83,66,2.32,PE,1707995605
408,thunder bay,48.4001,-89.3168,-7.72,89,54,3.29,CA,1707995606
409,rusape,-18.5278,32.1284,29.8,24,0,1.48,ZW,1707995308
410,borogontsy,62.6683,131.1683,-41.45,100,97,1.24,RU,1707995606
411,berriane,32.8265,3.7669,21.1,28,100,4.7,DZ,1707995607
412,saynshand,44.8824,110.1163,-10.47,72,0,4.59,MN,1707995607
413,pandan,14.0453,124.1694,25.5,87,48,4.3,PH,1707995608
414,tashtyp,52.7939,89.8983,-13.6,82,56,5.28,RU,1707995608
415,teguise,29.0605,-13.564,21.12,64,40,4.12,ES,1707995609
416,port moresby,-9.4431,147.1797,27.45,82,18,2.37,PG,1707995011
417,chinchilla,-26.75,150.6333,25.57,77,99,3.13,AU,1707995610
418,alexandria,31.2156,29.9553,13.28,80,100,4.15,EG,1707995610
419,sa kaeo,13.75,102.3333,36.01,29,72,2.83,TH,1707995611
420,margate,51.3813,1.3862,14.37,80,100,4.02,GB,1707995611
421,khandyga,62.6667,135.6,-40.2,100,99,0.53,RU,1707995612
422,sainte-suzanne,-20.9061,55.6089,31.12,70,20,9.26,RE,1707995612
423,riverton,40.5219,-111.9391,8.36,55,100,7.72,US,1707995613
424,gisborne,-38.6533,178.0042,16.59,81,0,4.54,NZ,1707995613
425,achikulak,44.5517,44.8378,3.72,76,100,7.56,RU,1707995613
426,salgar,5.965,-75.9654,18.75,96,93,0.11,CO,1707995614
427,linxia chengguanzhen,35.6003,103.2064,5.34,29,1,2.12,CN,1707995596
428,cabo san lucas,22.8909,-109.9124,20.42,71,100,3.4,MX,1707995527
429,priozersk,61.0393,30.1291,-4.44,84,100,2.46,RU,1707995615
430,huangshan,29.7114,118.3125,6.95,89,100,2.44,CN,1707995616
431,dryden,49.7833,-92.7503,-12.84,78,75,3.6,CA,1707995616
432,ifrane,33.3333,-5.25,14.68,38,100,7.02,MA,1707995616
433,galle,6.0367,80.217,27.88,81,90,2.65,LK,1707995366
434,rio grande,-32.035,-52.0986,23.06,65,100,6.14,BR,1707995617
435,prado,-17.3411,-39.2208,27.67,75,95,3.55,BR,1707995617
436,ponta delgada,37.7333,-25.6667,18.44,88,75,7.2,PT,1707995077
437,westport,41.1415,-73.3579,-2.32,70,0,4.12,US,1707995619
438,tahmoor,-34.2167,150.5833,19.03,78,100,0.94,AU,1707995619
439,asekeyevo,53.5742,52.7972,-18.5,82,0,4.3,RU,1707995620
440,al muwayh,22.4333,41.7583,30.03,17,99,12.39,SA,1707995620
441,ta'izz,13.5,44.0,26.79,34,7,3.92,YE,1707995620
442,manadhoo,5.7667,73.3833,28.25,75,22,5.52,MV,1707995622
443,fauske,67.2588,15.3918,-2.9,79,97,3.14,NO,1707995622
444,al kharj,24.155,47.3346,29.32,25,94,9.17,SA,1707995622
445,wenchang,30.904,118.4887,5.74,81,100,3.55,CN,1707995623
446,belmont,37.5202,-122.2758,12.2,94,75,2.06,US,1707995461
447,batibo,5.8358,9.8553,31.7,16,60,1.87,CM,1707995623
448,richmond hill,43.8711,-79.4372,-2.98,82,47,2.32,CA,1707995624
449,kourou,5.1552,-52.6478,27.03,80,94,4.35,GF,1707995624
450,neem ka thana,27.7333,75.8,25.14,18,0,1.27,IN,1707995624
451,maracai,-22.6106,-50.6672,22.76,94,100,0.91,BR,1707995625
452,zhengjiatun,43.5064,123.5064,-5.84,46,2,1.86,CN,1707995625
453,holualoa,19.6228,-155.9522,19.91,80,0,3.09,US,1707995626
454,tres passos,-27.4556,-53.9319,19.55,87,80,2.2,BR,1707995626
455,minas de marcona,-15.2119,-75.1103,18.76,87,99,4.59,PE,1707995627
456,zyryanovsk,49.7386,84.2719,-4.38,97,100,0.73,KZ,1707995627
457,kodiak,57.79,-152.4072,3.73,93,100,10.29,US,1707995628
458,coronel dorrego,-38.7187,-61.2873,17.16,60,0,6.32,AR,1707995628
459,port antonio,18.18,-76.4612,23.95,84,78,2.59,JM,1707995628
460,frutigen,46.5878,7.6475,11.19,74,99,1.68,CH,1707995629
461,chenzhou,25.8,113.0333,9.12,92,100,3.26,CN,1707995630
462,atar,20.5169,-13.0499,33.56,7,0,2.18,MR,1707995631
463,san pascual,13.7975,121.0342,25.83,74,19,3.26,PH,1707995631
464,arac,41.2422,33.3277,5.56,96,100,1.56,TR,1707995632
465,happy valley-goose bay,53.3168,-60.3315,-5.83,73,100,7.2,CA,1707995632
466,yeppoon,-23.1333,150.7333,24.88,80,100,7.11,AU,1707995633
467,shalqar,47.8333,59.6,-17.63,74,2,10.43,KZ,1707995633
468,neka,36.6508,53.299,21.19,36,82,3.13,IR,1707995634
469,barbacoas,1.6715,-78.1398,24.34,97,98,0.94,CO,1707995635
470,shiprock,36.7855,-108.687,-0.81,51,10,3.44,US,1707995636
471,nyangao,-10.3333,39.2833,27.48,90,84,2.79,TZ,1707995637
472,manokwari,-0.8667,134.0833,26.28,81,55,3.13,ID,1707995542
473,flying fish cove,-10.4217,105.6791,27.82,78,20,2.06,CX,1707995637
474,adrar,20.5022,-10.0711,31.39,10,9,4.36,MR,1707995637
475,olyokminsk,60.3736,120.4264,-32.72,100,59,1.11,RU,1707995638
476,yigo village,13.5361,144.8886,26.16,84,100,9.26,GU,1707995638
477,pacific grove,36.6177,-121.9166,9.49,93,0,3.09,US,1707995638
478,tateyama,34.9833,139.8667,17.28,75,79,11.26,JP,1707995369
479,belyayevka,51.3974,56.4096,-18.04,78,2,4.45,RU,1707995639
480,birobidzhan,48.8,132.95,-16.77,88,34,2.22,RU,1707995640
481,divnogorsk,55.9594,92.3619,-17.73,88,100,5.96,RU,1707995640
482,karratha,-20.7377,116.8463,28.82,72,16,7.04,AU,1707995409
483,jiazi,22.8779,116.067,21.48,72,100,3.13,CN,1707995641
484,ceeldheer,3.8488,47.1806,31.95,53,31,10.79,SO,1707995641
485,battagram,34.6772,73.0233,19.03,18,7,1.57,PK,1707995642
486,baishishan,43.5833,127.5667,-13.62,93,10,0.82,CN,1707995643
487,nouadhibou,20.931,-17.0347,20.99,78,20,10.29,MR,1707995643
488,bathsheba,13.2167,-59.5167,26.34,89,40,6.17,BB,1707995644
489,santana,-0.0583,-51.1817,25.1,94,75,1.03,BR,1707995644
490,znamenskoye,57.1281,73.8282,-21.48,90,100,4.31,RU,1707995645
491,busayra,30.7376,35.6078,9.26,60,97,3.27,JO,1707995646
492,springbok,-29.6643,17.8865,21.44,34,14,9.61,ZA,1707995647
493,toliara,-23.35,43.6667,31.7,56,99,2.94,MG,1707995476
494,flin flon,54.7682,-101.865,-27.26,96,25,2.31,CA,1707995648
495,makokou,0.5738,12.8642,34.85,39,100,1.71,GA,1707995648
496,lorengau,-2.0226,147.2712,27.86,83,71,3.47,PG,1707995649
497,namibe,-15.1961,12.1522,26.89,71,53,4.01,AO,1707995649
498,cooper's town,26.8667,-77.5167,20.21,62,4,8.06,BS,1707995650
499,linhares,-19.3911,-40.0722,26.34,83,99,2.62,BR,1707995651
500,jalapa,19.5333,-96.9167,13.7,91,93,1.52,MX,1707995651
501,beau vallon,-20.4189,57.6953,33.45,79,40,5.14,MU,1707995652
502,suva,-18.1416,178.4415,24.71,100,75,3.6,FJ,1707995652
503,khanty-mansiysk,61.0042,69.0019,-21.61,64,0,3.13,RU,1707995653
504,argo,37.6333,22.7333,13.21,45,31,4.82,GR,1707995653
505,sibolga,1.7427,98.7792,28.64,83,98,1.04,ID,1707995605
506,hasaki,35.7333,140.8333,17.38,72,73,12.96,JP,1707995358
507,sterling,39.0062,-77.4286,-0.79,80,0,1.54,US,1707995655
508,nizhneangarsk,55.7833,109.55,-20.0,95,100,2.24,RU,1707995656
509,las vegas,36.175,-115.1372,12.56,45,0,4.92,US,1707995656
510,blaj,46.1833,23.9167,8.29,57,7,0.63,RO,1707995529
511,kuressaare,58.2481,22.5039,1.64,100,100,4.92,EE,1707995657
512,noosa heads,-26.3833,153.15,24.63,85,90,5.76,AU,1707995658
513,cedeira,43.6797,-8.0209,15.54,78,100,8.13,ES,1707995659
514,prilep,41.3464,21.5544,7.46,39,1,2.81,MK,1707995660
515,fortuna,40.5982,-124.1573,9.4,97,100,3.6,US,1707995661
516,zahedan,29.4963,60.8629,22.95,25,0,7.2,IR,1707995662
517,kristiansund,63.1115,7.732,4.36,81,40,1.54,NO,1707995662
518,gulu,2.7746,32.299,33.38,26,92,1.65,UG,1707995544
519,clarksville,36.5298,-87.3595,8.14,66,0,3.6,US,1707995663
520,port douglas,-16.4833,145.4667,27.08,80,99,2.07,AU,1707995664
521,salalah,17.0151,54.0924,25.93,63,66,4.23,OM,1707995664
522,hauterive,46.0901,3.4459,16.42,63,100,1.91,FR,1707995665
523,puerto barrios,15.7167,-88.6,23.08,94,100,0.0,GT,1707995665
524,palikir - national government center,6.9248,158.1611,27.02,73,70,9.86,FM,1707995665
525,saint-philippe,-21.3585,55.7679,30.77,81,80,5.35,RE,1707995667
526,yaren,-0.5472,166.916,28.73,79,97,7.45,NR,1707995668
527,kuloy,61.0305,42.4925,-16.62,83,79,3.98,RU,1707995668
528,belvedere marittimo,39.6179,15.8617,16.18,47,0,2.08,IT,1707995668
529,amahai,-3.3333,128.9167,27.33,77,63,4.36,ID,1707995669
530,chapada dos guimaraes,-15.4606,-55.7497,21.81,65,53,0.43,BR,1707995669
531,eraan,9.0629,117.7016,25.66,78,62,2.52,PH,1707995670
532,benguela,-12.5763,13.4055,29.92,69,63,4.08,AO,1707995411
533,tromso,69.6496,18.957,-3.99,68,40,12.35,NO,1707995670
534,ad dabbah,18.05,30.95,26.37,19,83,7.49,SD,1707995671
535,tabas,33.5959,56.9244,24.7,17,0,3.82,IR,1707995671
536,rantauprapat,2.1,99.8333,26.72,92,62,0.31,ID,1707995671
537,aras-asan,8.8908,126.3033,25.6,81,16,0.88,PH,1707995671
538,asosa,10.0667,34.5333,32.65,11,28,3.21,ET,1707995672
539,xilin hot,43.9667,116.0333,-9.44,70,3,4.64,CN,1707995673
540,taloda,21.5667,74.2167,33.11,19,0,2.7,IN,1707995673
541,mersing,2.4312,103.8405,26.81,81,97,5.43,MY,1707995674
542,tambopata,-12.7333,-69.1833,22.94,100,75,0.0,PE,1707995674
543,ballina,-28.8667,153.5667,24.1,84,47,3.92,AU,1707995476
544,'ain el melh,34.8415,4.1638,17.69,39,99,4.62,DZ,1707995675
545,muzaffarabad,34.37,73.4711,21.57,19,10,1.45,PK,1707995676
546,timimoun,29.2639,0.231,24.21,23,0,7.72,DZ,1707995677
547,shalkar,47.8288,59.6258,-17.65,74,2,10.41,KZ,1707995677
548,yemetsk,63.4721,41.7941,-16.57,84,9,4.51,RU,1707995678
549,maceio,-9.6658,-35.7353,28.69,83,75,0.51,BR,1707995678
550,suphan buri,14.4742,100.1222,34.67,34,60,3.79,TH,1707995678
551,male,4.1748,73.5089,27.91,80,29,8.93,MV,1707995050
552,salinas,36.6777,-121.6555,10.0,99,0,3.09,US,1707995680
553,taulaga,-11.0553,-171.0883,26.98,87,100,10.03,AS,1707995680
554,la foa,-21.7108,165.8276,26.21,82,16,2.17,NC,1707995680
555,ulladulla,-35.35,150.4667,18.71,81,100,0.61,AU,1707995532
556,vila velha,-20.3297,-40.2925,26.97,78,0,4.63,BR,1707995681
557,phek,25.6667,94.5,13.75,60,91,0.88,IN,1707995682
558,novyy urengoy,66.0833,76.6333,-24.1,92,19,6.27,RU,1707995682
559,muktagacha,24.7667,90.2333,28.57,36,22,3.96,BD,1707995683
560,kandi,11.1342,2.9386,34.44,9,27,4.06,BJ,1707995684
561,lhasa,29.65,91.1,2.05,29,87,2.65,CN,1707995579
562,tamandare,-8.7597,-35.1047,28.21,74,99,1.6,BR,1707995685
563,karlstad,59.3793,13.5036,0.31,100,100,1.54,SE,1707995685
564,rijau,11.103,5.2507,33.96,9,31,4.5,NG,1707995685
565,veigne,47.2856,0.7408,18.23,62,0,4.63,FR,1707995686
566,kievka,50.2619,71.5514,-24.69,91,6,5.45,KZ,1707995687
567,puerto san jose,13.9256,-90.8244,23.63,78,3,1.05,GT,1707995687
568,labasa,-16.4167,179.3833,26.55,90,84,0.81,FJ,1707995688
569,kudahuvadhoo,2.6708,72.8944,28.11,79,67,7.17,MV,1707995688
570,shingu,33.7333,135.9833,14.66,96,100,3.39,JP,1707995678
571,codrington,-38.2667,141.9667,13.69,76,63,3.11,AU,1707995689
572,la ronge,55.1001,-105.2842,-30.86,69,0,0.0,CA,1707995690
573,lubango,-14.9172,13.4925,25.76,52,16,0.81,AO,1707995690
574,newnham,-41.3833,147.1333,15.93,77,58,5.14,AU,1707995690
575,roma,43.2128,-75.4557,-7.96,85,0,0.0,US,1707995691
576,malayer,34.2969,48.8235,11.66,57,37,9.27,IR,1707995691
577,arvayheer,46.2639,102.775,-4.31,42,91,4.45,MN,1707995692
578,bornu yassu,12.2774,12.5552,31.32,12,40,5.96,NG,1707995692
579,thanh hoa,19.8,105.7667,21.26,87,100,2.55,VN,1707995478
